[
{
  "id": "whangarei",
  "name": "Whangarei",
  "lat": -35.7275638,
  "lng": 174.3404298,
  "elevation_m": 250, 
  "power": "MEDIUM",  
  "location": "Parahaka",
  "area": "Whangarei",
  "service": "Freeview",
  "polarity": "Vertical",
  "frequencies": [28, 30, 32, 34, 36, 38],
  "is_primary": true
},    
{
  "id": "waiatarua",
  "name": "Waiatarua",
  "lat": -36.9262519,
  "lng": 174.5679983,
  "elevation_m": 435, 
  "power": "HIGH",  
  "location": "Waitakere Ranges",
  "area": "Auckland",
  "service": "Freeview",
  "polarity": "Horizontal",
  "frequencies": [27, 29, 33, 35, 37, 39],
  "is_primary": true
},
  {
    "id": "skytower",
    "name": "Sky Tower",
    "lat": -36.8493698,
    "lng": 174.7586989,
    "elevation_m": 375, 
    "power": "MEDIUM",  
    "location": "Auckland City",
    "area": "Auckland",
    "service": "Freeview",
    "polarity": "Vertical",
    "frequencies": [28, 32, 34, 36, 38],
    "is_primary": false
  },
  {
    "id": "pinehill",
    "name": "Pine Hill",
    "lat": -36.7330696,
    "lng": 174.734787,
    "elevation_m": 250, 
    "power": "LOW", 
    "location": "Pine Hill",
    "area": "Auckland",
    "service": "Freeview",
    "polarity": "Horizontal",
    "frequencies": [28, 32, 34, 36, 38],
    "is_primary": false
  },
  {
    "id": "remuera",
    "name": "Remuera",
    "lat": -36.8810292,
    "lng": 174.8005929,
    "elevation_m": 250, 
    "power": "LOW", 
    "location": "Remuera",
    "area": "Auckland",
    "service": "Freeview",
    "polarity": "Vertical",
    "frequencies": [28, 32, 34, 36, 38],
    "is_primary": false
  },
  {
    "id": "Oneroa",
    "name": "Waiheke",
    "lat": -36.78694,
    "lng": 175.02528,
    "elevation_m": 153, 
    "power": "MEDIUM", 
    "location": "Waiheke Island",
    "area": "Auckland",
    "service": "Freeview",
    "polarity": "Vertical",
    "frequencies": [28, 32, 34, 36, 38],
    "is_primary": false
  },
  {
    "id": "te aroha",
    "name": "Te Aroha",
    "lat": -37.32,
    "lng": 175.33,
    "elevation_m": 953, 
    "power": "HIGH", 
    "location": "Mount Te Aroha",
    "area": "Waikato",
    "service": "Freeview",
    "polarity": "Horizontal",
    "frequencies": [28, 30, 32, 34, 36, 38],
    "is_primary": true 
  },
  {
    "id": "hamilton",
    "name": "Hamilton Towers",
    "lat": -37.4633,
    "lng": 175.1619,
    "elevation_m": 534, 
    "power": "LOW", 
    "location": "Hamilton Towers",
    "area": "Waikato",
    "service": "Freeview",
    "polarity": "Vertical",
    "frequencies": [29, 31, 33, 35, 37, 39],
    "is_primary": false 
  },
  {
    "id": "rukuhia",
    "name": "Rukuhia",
    "lat": -37.8288,
    "lng": 175.2977,
    "elevation_m": 257, 
    "power": "MEDIUM", 
    "location": "Rukuhia",
    "area": "Waikato",
    "service": "Freeview",
    "polarity": "Vertical",
    "frequencies": [27, 29, 31, 33, 35, 37, 39],
    "is_primary": false 
  },
  {
    "id": "Pukepoto",
    "name": "Rotorua",
    "lat": -38.138164,
    "lng": 176.357903,
    "elevation_m": 685, 
    "power": "MEDIUM", 
    "location": "Pukepoto Hill",
    "area": "Central North Island",
    "service": "Freeview",
    "polarity": "Vertical",
    "frequencies": [27, 29, 31, 33, 35, 37, 39],
    "is_primary": false 
  },
  {
    "id": "Whakaroa",
    "name": "Taupo",
    "lat": -38.66687,
    "lng": 175.95595,
    "elevation_m": 300, 
    "power": "MEDIUM", 
    "location": "Whakaroa",
    "area": "Central North Island",
    "service": "Freeview",
    "polarity": "Vertical",
    "frequencies": [29, 31, 33, 35, 37, 39],
    "is_primary": false 
  },
  {
    "id": "Kopukairua",
    "name": "Tauranga",
    "lat": -37.73059,
    "lng": 176.23735,
    "elevation_m": 219, 
    "power": "MEDIUM", 
    "location": "Kopukairua",
    "area": "Central North Island",
    "service": "Freeview",
    "polarity": "Vertical",
    "frequencies": [29, 31, 33, 35, 37, 39],
    "is_primary": false 
  },
  {
    "id": "Parikanapa",
    "name": "Gisbourne",
    "lat": -38.74739,
    "lng": 177.7041151,
    "elevation_m": 481, 
    "power": "MEDIUM", 
    "location": "Parikanapa",
    "area": "East Coast",
    "service": "Freeview",
    "polarity": "Horizontal",
    "frequencies": [28, 30, 32, 34, 36, 38],
    "is_primary": false 
  },
  {
    "id": "Wheatstone Rd",
    "name": "Wheatstone Rd",
    "lat": -38.64335,
    "lng": 178.07722,
    "elevation_m": 300, 
    "power": "MEDIUM", 
    "location": "Wheatstone Rd",
    "area": "East Coast",
    "service": "Freeview",
    "polarity": "Horizontal",
    "frequencies": [29, 31, 33, 35, 37, 39],
    "is_primary": false 
  },
  {
    "id": "Mt Erin",
    "name": "Mt Erin",
    "lat": -40.36,
    "lng": 176.53,
    "elevation_m": 490, 
    "power": "HIGH", 
    "location": "Mt Erin",
    "area": "East Coast",
    "service": "Freeview",
    "polarity": "Vertical",
    "frequencies": [28, 30, 32, 34, 36, 38],
    "is_primary": true 
  },
  {
    "id": "Napier Airport",
    "name": "Napier Airport",
    "lat": -39.28,
    "lng": 176.52,
    "elevation_m": 50, 
    "power": "LOW", 
    "location": "Napier Airport",
    "area": "East Coast",
    "service": "Freeview",
    "polarity": "Vertical",
    "frequencies": [29, 31, 33, 35, 37, 39],
    "is_primary": false 
  },
  {
    "id": "Kaukau",
    "name": "Kaukau",
    "lat": -41.141,
    "lng": 174.4646,
    "elevation_m": 122, 
    "power": "HIGH", 
    "location": "Kaukau",
    "area": "Wellington",
    "service": "Freeview",
    "polarity": "Horizontal",
    "frequencies": [28, 30, 32, 34, 36, 38],
    "is_primary": true 
  },
  {
    "id": "Baxters Knob",
    "name": "Baxters Knob",
    "lat": -41.1288,
    "lng": 174.8618,
    "elevation_m": 493, 
    "power": "LOW", 
    "location": "Baxters Knob",
    "area": "Wellington",
    "service": "Freeview",
    "polarity": "Horizontal",
    "frequencies": [29, 31, 33, 35, 37, 39],
    "is_primary": false 
  },
  {
    "id": "Fitzherbert",
    "name": "Fitzherbert",
    "lat": -41.21841,
    "lng": 174.95923,
    "elevation_m": 145, 
    "power": "MEDIUM", 
    "location": "Fitzherbert",
    "area": "Wellington",
    "service": "Freeview",
    "polarity": "Vertical",
    "frequencies": [29, 31, 33, 35, 37, 39],
    "is_primary": false 
  },
  {
    "id": "haywards",
    "name": "Haywards",
    "lat": -41.1493,
    "lng": 174.9787,
    "elevation_m": 370, 
    "power": "LOW", 
    "location": "Haywards",
    "area": "Wellington",
    "service": "Freeview",
    "polarity": "Vertical",
    "frequencies": [29, 31, 33, 35, 37, 39],
    "is_primary": false 
  },
  {
    "id": "Mt Taranaki",
    "name": "New Plymouth",
    "lat": -39.29621,
    "lng":  174.06378,
    "elevation_m": 1150, 
    "power": "HIGH", 
    "location": "Mt Taranaki",
    "area": "Taranaki",
    "service": "Freeview",
    "polarity": "Horizontal",
    "frequencies": [28, 30, 32, 34, 36, 38],
    "is_primary": true 
  },
  {
    "id": "Mt Jowett",
    "name": "Wanganui",
    "lat": -39.88333,
    "lng":  175.06667,
    "elevation_m": 150, 
    "power": "LOW", 
    "location": "Mt Jowett",
    "area": "Taranaki",
    "service": "Freeview",
    "polarity": "Horizontal",
    "frequencies": [29, 31, 33, 35, 37, 39],
    "is_primary": false 
  },
  {
    "id": "Wharite",
    "name": "Palmerston North",
    "lat": -40.15,
    "lng":  175.49, 
    "elevation_m": 880, 
    "power": "HIGH", 
    "location": "Wharite",
    "area": "Taranaki",
    "service": "Freeview",
    "polarity": "Vertical",
    "frequencies": [28, 30, 32, 34, 36, 38],
    "is_primary": true 
  },
  {
    "id": "Ngarara",
    "name": "Kapiti",
    "lat": -40.819,
    "lng":  175.06667,
    "elevation_m": 135, 
    "power": "MEDIUM", 
    "location": "Ngarara",
    "area": "Taranaki",
    "service": "Freeview",
    "polarity": "Vertical",
    "frequencies": [29, 31, 33, 35, 37, 39],
    "is_primary": false 
  },
  {
    "id": "Popoiti",
    "name": "Wairarapa",
    "lat": -41.1641,
    "lng":  175.56863,
    "elevation_m": 410, 
    "power": "MEDIUM", 
    "location": "Popoiti Hill",
    "area": "Masterton",
    "service": "Freeview",
    "polarity": "Vertical",
    "frequencies": [29, 31, 33, 35, 37, 39],
    "is_primary": false 
  },
  {
    "id": "Botanical Ridge",
    "name": "Botanical Ridge",
    "lat": -41.2702929,
    "lng":  173.3015136,
    "elevation_m": 147, 
    "power": "MEDIUM", 
    "location": "Botanical Hill",
    "area": "Canterbury",
    "service": "Freeview",
    "polarity": "Horizontal",
    "frequencies": [26, 28, 30, 32, 34, 36, 38],
    "is_primary": false 
  },
  {
    "id": "Mt Campbell",
    "name": "Mt Campbell",
    "lat": -41.12390,
    "lng":  172.85280,
    "elevation_m": 1330, 
    "power": "MEDIUM", 
    "location": "Mt campbell",
    "area": "Canterbury",
    "service": "Freeview",
    "polarity": "Vertical",
    "frequencies": [29, 31, 33, 35, 37, 39],
    "is_primary": true
  },
  {
    "id": "SugarLoaf",
    "name": "Sugarloaf",
    "lat": -43.6067,
    "lng":  172.6366,
    "elevation_m": 496, 
    "power": "HIGH", 
    "location": "Port Hills",
    "area": "Canterbury",
    "service": "Freeview",
    "polarity": "Vertical",
    "frequencies": [29, 31, 33, 35, 37, 39],
    "is_primary": true
  },
  {
    "id": "Cave hill",
    "name": "Cave hill",
    "lat": -44.4072,
    "lng": 171.2173,
    "elevation_m": 538, 
    "power": "MEDIUM", 
    "location": "Timaru",
    "area": "Otago",
    "service": "Freeview",
    "polarity": "Vertical",
    "frequencies": [29, 31, 33, 35, 37, 39],
    "is_primary": true
  },
  {
    "id": "Cape Wanbrow",
    "name": "Oamaru",
    "lat": -45.1051,
    "lng": 170.9701,
    "elevation_m": 133, 
    "power": "MEDIUM", 
    "location": "Oamaru",
    "area": "Otago",
    "service": "Freeview",
    "polarity": "Vertical",
    "frequencies": [34],
    "is_primary": true
  },
  {
    "id": "Mt Cargill",
    "name": "Dunedin",
    "lat": -45.8115,
    "lng": 170.5285,
    "elevation_m": 676, 
    "power": "HIGH", 
    "location": "Dunedin",
    "area": "Otago",
    "service": "Freeview",
    "polarity": "Horizontal",
    "frequencies":  [28, 30, 32, 34, 36, 38],
    "is_primary": true
  },
  {
    "id": "Forest Hill",
    "name": "invercargill",
    "lat": -46.3315,
    "lng": 168.3073,
    "elevation_m": 250, 
    "power": "HIGH", 
    "location": "Invercargill",
    "area": "Otago",
    "service": "Freeview",
    "polarity": "Vertical",
    "frequencies":  [28, 30, 32, 34, 36, 38],
    "is_primary": true
  }
]